{"results":[{"id":498817,"name":"Санкт-Петербург","latitude":59.93863,"longitude":30.31413,"ranking":1.3,"elevation":11,"feature_code":"PPLA","country_code":"RU","admin1_id":536203,"timezone":"Europe/Moscow","population":5028000,"country_id":2017370,"country":"Россия","admin1":"Санкт-Петербург"},{"id":2658822,"name":"Санкт-Галлен","latitude":47.42391,"longitude":9.37477,"ranking":0.54094833,"elevation":684,"feature_code":"PPLA","country_code":"CH","admin1_id":2658821,"admin2_id":6458770,"admin3_id":7287240,"timezone":"Europe/Zurich","population":70572,"postcodes":["9000","9008","9011","9012","9014","9015","9016"],"country_id":2658434,"country":"Швейцария","admin1":"Kanton St. Gallen","admin2":"Wahlkreis St. Gallen","admin3":"St. Gallen"},{"id":2766429,"name":"Санкт-Пёльтен","latitude":48.2,"longitude":15.63333,"ranking":0.3583785,"elevation":275,"feature_code":"PPLA","country_code":"AT","admin1_id":2770542,"admin3_id":7871493,"timezone":"Europe/Vienna","population":21911,"country_id":2782113,"country":"Австрия","admin1":"Нижняя Австрия","admin3":"St. Pölten"},{"id":935268,"name":"Санкт-Андре","latitude":-20.96333,"longitude":55.65031,"ranking":0.29574734,"elevation":103,"feature_code":"PPL","country_code":"RE","admin3_id":935266,"admin4_id":6690293,"timezone":"Indian/Reunion","population":48674,"postcodes":["97440"],"admin3":"Arrondissement de Saint-Benoît","admin4":"Saint-André"},{"id":2977824,"name":"Санкт-Оуэн","latitude":48.90654,"longitude":2.33339,"ranking":0.28077853,"elevation":35,"feature_code":"PPL","country_code":"FR","admin1_id":3012874,"admin2_id":2975246,"admin3_id":2980915,"admin4_id":6455342,"timezone":"Europe/Paris","population":39353,"postcodes":["93400","93401 CEDEX","93402 CEDEX","93403 CEDEX","93404 CEDEX","93405 CEDEX","93406 CEDEX","93407 CEDEX","93408 CEDEX","93481 CEDEX","93482 CEDEX","93483 CEDEX","93484 CEDEX","93486 CEDEX","93487 CEDEX","93489 CEDEX","93581 CEDEX","93582 CEDEX","93583 CEDEX","93584 CEDEX","93585 CEDEX","93586 CEDEX","93587 CEDEX","93588 CEDEX","93589 CEDEX"],"country_id":3017382,"country":"Франция","admin1":"Île-de-France","admin2":"Seine-Saint-Denis","admin3":"Arrondissement de Saint-Denis","admin4":"Сент-Уэн"},{"id":935225,"name":"Санкт-Леу","latitude":-21.17059,"longitude":55.28824,"ranking":0.26578492,"elevation":10,"feature_code":"PPL","country_code":"RE","admin3_id":935220,"admin4_id":6690297,"timezone":"Indian/Reunion","population":28278,"postcodes":["97436","97416","97424"],"admin3":"Arrondissement de Saint-Paul","admin4":"Saint-Leu"},{"id":935267,"name":"Санкт-Бенуа","latitude":-21.03795,"longitude":55.71546,"ranking":0.27497432,"elevation":17,"feature_code":"PPL","country_code":"RE","admin3_id":935266,"admin4_id":6690294,"timezone":"Indian/Reunion","population":35310,"postcodes":["97470","97437"],"admin3":"Arrondissement de Saint-Benoît","admin4":"Сен-Бенуа"},{"id":2977825,"name":"Санкт-Оуэн","latitude":47.81404,"longitude":1.08067,"ranking":0.24089724,"elevation":122,"feature_code":"PPL","country_code":"FR","admin1_id":3027939,"admin2_id":2997856,"admin3_id":2970109,"admin4_id":6454134,"timezone":"Europe/Paris","population":3197,"postcodes":["41100"],"country_id":3017382,"country":"Франция","admin1":"Centre-Val de Loire","admin2":"Loir-et-Cher","admin3":"Arrondissement de Vendôme","admin4":"Saint-Ouen"},{"id":2977821,"name":"Санкт-Оуэн","latitude":50.03819,"longitude":2.12088,"ranking":0.24014455,"elevation":25,"feature_code":"PPL","country_code":"FR","admin1_id":11071624,"admin2_id":2974304,"admin3_id":3037853,"admin4_id":6454773,"timezone":"Europe/Paris","population":2229,"postcodes":["80610"],"country_id":3017382,"country":"Франция","admin1":"Hauts-de-France","admin2":"Somme","admin3":"Arrondissement d'Amiens","admin4":"Saint-Ouen"},{"id":2787356,"name":"Санкт-Никола","latitude":50.62837,"longitude":5.53243,"ranking":0.25912502,"elevation":96,"feature_code":"PPL","country_code":"BE","admin1_id":3337387,"timezone":"Europe/Brussels","population":22586,"postcodes":["4420"],"country_id":2802361,"country":"Бельгия","admin1":"Wallonia"}],"generationtime_ms":1.8479824}